This file have been created with SDU Serial Monitor
30-09-2019 15:39:49

$GPGGA,133800.000,5454.7212,N,00946.8262,E,2,06,1.58,28.1,M,44.6,M,0000,0000*52
$GPGSA,A,3,23,22,01,09,31,03,,,,,,,1.81,1.58,0.88*0E
$GPRMC,133800.000,A,5454.7212,N,00946.8262,E,1.31,347.79,300919,,,D*6E
$GPVTG,347.79,T,,M,1.31,N,2.43,K,D*30
$GPGGA,133801.000,5454.7215,N,00946.8262,E,2,05,4.63,27.8,M,44.6,M,0000,0000*5C
$GPGSA,A,3,23,22,01,09,03,,,,,,,,7.10,4.63,5.39*00
$GPGSV,4,1,15,23,69,184,42,03,66,094,36,22,44,101,39,06,41,302,13*7C
$GPGSV,4,2,15,09,37,216,44,19,34,264,,17,29,246,13,31,24,045,12*75
$GPGSV,4,3,15,36,24,154,41,01,21,152,40,25,07,005,,14,05,048,*75
$GPGSV,4,4,15,11,03,168,17,02,03,318,,12,03,327,*4A
$GPRMC,133801.000,A,5454.7215,N,00946.8262,E,0.65,6.57,300919,,,D*62
$GPVTG,6.57,T,,M,0.65,N,1.20,K,D*3C
$GPGGA,133802.000,5454.7217,N,00946.8263,E,2,05,4.63,27.5,M,44.6,M,0000,0000*51
$GPGSA,A,3,23,22,01,09,03,,,,,,,,7.11,4.63,5.39*01
$GPRMC,133802.000,A,5454.7217,N,00946.8263,E,2.60,164.23,300919,,,D*63
$GPVTG,164.23,T,,M,2.60,N,4.83,K,D*31
$GPGGA,133803.000,5454.7211,N,00946.8267,E,2,05,2.17,29.2,M,44.6,M,0000,0000*5E
$GPGSA,A,3,23,22,01,09,03,,,,,,,,2.39,2.17,0.98*05
$GPRMC,133803.000,A,5454.7211,N,00946.8267,E,2.45,162.54,300919,,,D*61
$GPVTG,162.54,T,,M,2.45,N,4.54,K,D*3A
$GPGGA,133804.000,5454.7212,N,00946.8267,E,2,06,1.57,29.0,M,44.6,M,0000,0000*5C
$GPGSA,A,3,23,22,01,09,31,03,,,,,,,1.81,1.57,0.88*01
$GPRMC,133804.000,A,5454.7212,N,00946.8267,E,1.16,164.36,300919,,,D*62
$GPVTG,164.36,T,,M,1.16,N,2.15,K,D*3E
$GPGGA,133805.000,5454.7210,N,00946.8269,E,2,05,2.17,29.6,M,44.6,M,0000,0000*53
$GPGSA,A,3,23,22,01,09,03,,,,,,,,2.39,2.17,0.98*05
$GPRMC,133805.000,A,5454.7210,N,00946.8269,E,1.00,163.30,300919,,,D*69
$GPVTG,163.30,T,,M,1.00,N,1.86,K,D*31
$GPGGA,133806.000,5454.7209,N,00946.8270,E,2,05,2.17,30.1,M,44.6,M,0000,0000*5F
$GPGSA,A,3,23,22,01,09,03,,,,,,,,2.39,2.17,0.98*05
$GPGSV,4,1,15,23,69,184,42,03,66,094,37,22,44,101,39,06,41,302,15*7B
$GPGSV,4,2,15,09,37,216,44,19,34,264,,17,29,246,17,31,24,045,14*77
$GPGSV,4,3,15,36,24,154,41,01,21,152,39,25,07,005,,14,05,048,*7B
$GPGSV,4,4,15,11,03,168,19,02,03,318,,12,03,327,*44
$GPRMC,133806.000,A,5454.7209,N,00946.8270,E,0.96,164.29,300919,,,D*6B
$GPVTG,164.29,T,,M,0.96,N,1.77,K,D*3E
$GPGGA,133807.000,5454.7212,N,00946.8269,E,2,05,2.17,29.3,M,44.6,M,0000,0000*56
$GPGSA,A,3,23,22,01,09,03,,,,,,,,2.39,2.17,0.98*05
$GPRMC,133807.000,A,5454.7212,N,00946.8269,E,0.63,145.41,300919,,,D*6F
$GPVTG,145.41,T,,M,0.63,N,1.18,K,D*30
$GPGGA,133808.000,5454.7211,N,00946.8271,E,2,05,2.17,29.6,M,44.6,M,0000,0000*56
$GPGSA,A,3,23,22,01,09,03,,,,,,,,2.39,2.17,0.98*05
$GPRMC,133808.000,A,5454.7211,N,00946.8271,E,0.56,156.55,300919,,,D*6B
$GPVTG,156.55,T,,M,0.56,N,1.03,K,D*3B
$GPGGA,133809.000,5454.7212,N,00946.8271,E,2,06,1.57,29.4,M,44.6,M,0000,0000*52
$GPGSA,A,3,23,22,01,09,31,03,,,,,,,1.81,1.57,0.88*01
$GPRMC,133809.000,A,5454.7212,N,00946.8271,E,0.38,157.96,300919,,,D*6F
$GPVTG,157.96,T,,M,0.38,N,0.70,K,D*38
$GPGGA,133810.000,5454.7212,N,00946.8270,E,2,05,2.17,29.3,M,44.6,M,0000,0000*58
$GPGSA,A,3,23,22,01,09,03,,,,,,,,2.39,2.17,0.98*05
$GPRMC,133810.000,A,5454.7212,N,00946.8270,E,0.27,161.02,300919,,,D*60
$GPVTG,161.02,T,,M,0.27,N,0.49,K,D*34
$GPGGA,133811.000,5454.7213,N,00946.8270,E,2,05,2.17,29.1,M,44.6,M,0000,0000*5A
$GPGSA,A,3,23,22,01,09,03,,,,,,,,2.38,2.17,0.98*04
$GPGSV,4,1,15,23,69,184,42,03,66,094,37,22,44,101,39,06,41,302,14*7A
$GPGSV,4,2,15,09,37,216,44,19,34,264,,17,29,246,14,31,24,045,12*72
$GPGSV,4,3,15,36,24,154,40,01,21,152,39,25,07,005,,14,05,048,*7A
$GPGSV,4,4,15,02,03,318,,12,03,326,,11,02,168,18*45
$GPRMC,133811.000,A,5454.7213,N,00946.8270,E,0.21,161.53,300919,,,D*62
$GPVTG,161.53,T,,M,0.21,N,0.39,K,D*31
$GPGGA,133812.000,5454.7212,N,00946.8271,E,2,05,2.17,29.3,M,44.6,M,0000,0000*5B
$GPGSA,A,3,23,22,01,09,03,,,,,,,,2.39,2.17,0.98*05
$GPRMC,133812.000,A,5454.7212,N,00946.8271,E,0.17,160.44,300919,,,D*63
$GPVTG,160.44,T,,M,0.17,N,0.31,K,D*3B
$GPGGA,133813.000,5454.7212,N,00946.8271,E,2,06,1.57,29.4,M,44.6,M,0000,0000*59
$GPGSA,A,3,23,22,01,09,31,03,,,,,,,1.80,1.57,0.88*00
$GPRMC,133813.000,A,5454.7212,N,00946.8271,E,0.11,161.65,300919,,,D*66
$GPVTG,161.65,T,,M,0.11,N,0.20,K,D*3F
$GPGGA,133814.000,5454.7211,N,00946.8271,E,2,06,1.57,29.5,M,44.6,M,0000,0000*5C
$GPGSA,A,3,23,22,01,09,31,03,,,,,,,1.80,1.57,0.88*00
$GPRMC,133814.000,A,5454.7211,N,00946.8271,E,0.11,162.35,300919,,,D*64
$GPVTG,162.35,T,,M,0.11,N,0.21,K,D*38
$GPGGA,133815.000,5454.7211,N,00946.8271,E,2,05,2.17,29.5,M,44.6,M,0000,0000*59
$GPGSA,A,3,23,22,01,09,03,,,,,,,,2.38,2.17,0.98*04
$GPRMC,133815.000,A,5454.7211,N,00946.8271,E,0.07,167.28,300919,,,D*6B
$GPVTG,167.28,T,,M,0.07,N,0.14,K,D*30
$GPGGA,133816.000,5454.7211,N,00946.8271,E,2,05,2.17,29.6,M,44.6,M,0000,0000*59
$GPGSA,A,3,23,22,01,09,03,,,,,,,,2.39,2.17,0.98*05
$GPGSV,4,1,15,23,69,184,41,03,66,094,37,22,44,101,40,06,41,302,17*74
$GPGSV,4,2,15,09,37,216,44,19,34,264,,17,29,245,14,31,24,045,15*76
$GPGSV,4,3,15,36,24,154,41,01,21,152,39,25,07,005,,14,04,049,*7B
$GPGSV,4,4,15,02,03,318,,12,03,326,,11,02,168,18*45
$GPRMC,133816.000,A,5454.7211,N,00946.8271,E,0.10,157.15,300919,,,D*63
$GPVTG,157.15,T,,M,0.10,N,0.18,K,D*37
$GPGGA,133817.000,5454.7211,N,00946.8271,E,2,06,1.57,29.6,M,44.6,M,0000,0000*5C
$GPGSA,A,3,23,22,01,09,31,03,,,,,,,1.81,1.57,0.88*01
$GPRMC,133817.000,A,5454.7211,N,00946.8271,E,0.11,152.59,300919,,,D*6E
$GPVTG,152.59,T,,M,0.11,N,0.20,K,D*30
$GPGGA,133818.000,5454.7210,N,00946.8272,E,2,05,2.17,29.7,M,44.6,M,0000,0000*54
$GPGSA,A,3,23,22,01,09,03,,,,,,,,2.38,2.17,0.98*04
$GPRMC,133818.000,A,5454.7210,N,00946.8272,E,0.15,156.13,300919,,,D*6D
$GPVTG,156.13,T,,M,0.15,N,0.27,K,D*39
$GPGGA,133819.000,5454.7210,N,00946.8272,E,2,05,2.17,29.7,M,44.6,M,0000,0000*55
$GPGSA,A,3,23,22,01,09,03,,,,,,,,2.38,2.17,0.98*04
$GPRMC,133819.000,A,5454.7210,N,00946.8272,E,0.16,153.79,300919,,,D*66
$GPVTG,153.79,T,,M,0.16,N,0.29,K,D*3D
$GPGGA,133820.000,5454.7210,N,00946.8272,E,2,06,1.57,29.7,M,44.6,M,0000,0000*5B
$GPGSA,A,3,23,22,01,09,31,03,,,,,,,1.81,1.57,0.88*01
$GPRMC,133820.000,A,5454.7210,N,00946.8272,E,0.11,147.33,300919,,,D*60
$GPVTG,147.33,T,,M,0.11,N,0.21,K,D*39
$GPGGA,133821.000,5454.7209,N,00946.8273,E,2,05,2.17,29.8,M,44.6,M,0000,0000*58
$GPGSA,A,3,23,22,01,09,03,,,,,,,,2.39,2.17,0.98*05
$GPGSV,4,1,15,23,69,184,41,03,66,094,37,22,43,101,40,06,41,302,16*72
$GPGSV,4,2,15,09,37,216,44,19,34,264,,17,29,245,19,31,24,045,17*79
$GPGSV,4,3,15,36,24,154,41,01,21,152,39,25,07,005,,14,04,049,*7B
$GPGSV,4,4,15,02,03,318,,12,03,326,,11,02,168,19*44
$GPRMC,133821.000,A,5454.7209,N,00946.8273,E,0.01,305.80,300919,,,D*65
$GPVTG,305.80,T,,M,0.01,N,0.02,K,D*35
$GPGGA,133822.000,5454.7210,N,00946.8273,E,2,05,2.17,29.8,M,44.6,M,0000,0000*53
$GPGSA,A,3,23,22,01,09,03,,,,,,,,2.39,2.17,0.98*05
$GPRMC,133822.000,A,5454.7210,N,00946.8273,E,0.07,338.69,300919,,,D*61
$GPVTG,338.69,T,,M,0.07,N,0.12,K,D*3B
$GPGGA,133823.000,5454.7210,N,00946.8272,E,2,06,1.57,29.8,M,44.6,M,0000,0000*57
$GPGSA,A,3,23,22,01,09,31,03,,,,,,,1.80,1.57,0.88*00
$GPRMC,133823.000,A,5454.7210,N,00946.8272,E,0.05,329.68,300919,,,D*62
$GPVTG,329.68,T,,M,0.05,N,0.10,K,D*3A
$GPGGA,133824.000,5454.7210,N,00946.8272,E,2,05,2.17,29.8,M,44.6,M,0000,0000*54
$GPGSA,A,3,23,22,01,09,03,,,,,,,,2.39,2.17,0.98*05
$GPRMC,133824.000,A,5454.7210,N,00946.8272,E,0.08,332.32,300919,,,D*6D
$GPVTG,332.32,T,,M,0.08,N,0.15,K,D*37
$GPGGA,133825.000,5454.7210,N,00946.8272,E,2,05,2.17,29.8,M,44.6,M,0000,0000*55
$GPGSA,A,3,23,22,01,09,03,,,,,,,,2.39,2.17,0.98*05
$GPRMC,133825.000,A,5454.7210,N,00946.8272,E,0.03,129.49,300919,,,D*63
$GPVTG,129.49,T,,M,0.03,N,0.05,K,D*39
$GPGGA,133826.000,5454.7210,N,00946.8272,E,2,05,2.17,29.8,M,44.6,M,0000,0000*56
$GPGSA,A,3,23,22,01,09,03,,,,,,,,2.39,2.17,0.98*05
$GPGSV,4,1,15,23,69,184,41,03,66,094,37,22,43,101,40,06,41,302,16*72
$GPGSV,4,2,15,09,37,216,44,19,34,264,,17,29,245,19,31,24,045,16*78
$GPGSV,4,3,15,36,24,154,41,01,21,152,39,25,07,005,,14,04,049,*7B
$GPGSV,4,4,15,02,03,318,,12,03,326,,11,02,168,21*4F
$GPRMC,133826.000,A,5454.7210,N,00946.8272,E,0.01,121.42,300919,,,D*61
$GPVTG,121.42,T,,M,0.01,N,0.02,K,D*3F
$GPGGA,133827.000,5454.7210,N,00946.8272,E,2,06,1.57,29.8,M,44.6,M,0000,0000*53
$GPGSA,A,3,23,22,01,09,31,03,,,,,,,1.80,1.57,0.88*00
$GPRMC,133827.000,A,5454.7210,N,00946.8272,E,0.04,99.69,300919,,,D*5E
$GPVTG,99.69,T,,M,0.04,N,0.08,K,D*0B
$GPGGA,133828.000,5454.7210,N,00946.8272,E,2,05,2.17,29.8,M,44.6,M,0000,0000*58
$GPGSA,A,3,23,22,01,09,03,,,,,,,,2.39,2.17,0.98*05
$GPRMC,133828.000,A,5454.7210,N,00946.8272,E,0.07,22.30,300919,,,D*5E
$GPVTG,22.30,T,,M,0.07,N,0.12,K,D*0F
$GPGGA,133829.000,5454.7210,N,00946.8272,E,2,06,1.61,29.8,M,44.6,M,0000,0000*58
$GPGSA,A,3,23,22,01,09,31,03,,,,,,,2.49,1.61,1.90*0B
$GPRMC,133829.000,A,5454.7210,N,00946.8272,E,0.02,164.50,300919,,,D*6F
$GPVTG,164.50,T,,M,0.02,N,0.04,K,D*38
$GPGGA,133830.000,5454.7210,N,00946.8272,E,2,06,1.61,29.8,M,44.6,M,0000,0000*50
$GPGSA,A,3,23,22,01,09,31,03,,,,,,,2.49,1.61,1.90*0B
$GPRMC,133830.000,A,5454.7210,N,00946.8272,E,0.03,266.28,300919,,,D*68
$GPVTG,266.28,T,,M,0.03,N,0.05,K,D*36
$GPGGA,133831.000,5454.7210,N,00946.8272,E,2,06,1.61,29.8,M,44.6,M,0000,0000*51
$GPGSA,A,3,23,22,01,09,31,03,,,,,,,2.49,1.61,1.90*0B
$GPGSV,4,1,15,23,69,184,39,03,66,094,36,22,43,101,30,06,41,302,16*7B
$GPGSV,4,2,15,09,37,216,42,19,34,264,,17,29,245,18,31,24,045,17*7E
$GPGSV,4,3,15,36,24,154,30,01,21,152,20,25,07,005,,14,04,049,*75
$GPGSV,4,4,15,02,03,318,,12,03,326,,11,02,168,18*45
$GPRMC,133831.000,A,5454.7210,N,00946.8272,E,0.01,1.15,300919,,,D*66
$GPVTG,1.15,T,,M,0.01,N,0.02,K,D*3E
$GPGGA,133832.000,5454.7210,N,00946.8272,E,2,05,4.68,29.8,M,44.6,M,0000,0000*5D
$GPGSA,A,3,23,22,01,09,03,,,,,,,,7.17,4.68,5.43*01
$GPRMC,133832.000,A,5454.7210,N,00946.8272,E,0.10,1.68,300919,,,D*6F
$GPVTG,1.68,T,,M,0.10,N,0.18,K,D*3F
$GPGGA,133833.000,5454.7210,N,00946.8272,E,2,06,1.61,29.8,M,44.6,M,0000,0000*53
$GPGSA,A,3,23,22,01,09,31,03,,,,,,,2.49,1.61,1.90*0B
$GPRMC,133833.000,A,5454.7210,N,00946.8272,E,0.02,58.03,300919,,,D*5C
$GPVTG,58.03,T,,M,0.02,N,0.03,K,D*07
$GPGGA,133834.000,5454.7210,N,00946.8273,E,2,06,1.61,29.8,M,44.6,M,0000,0000*55
$GPGSA,A,3,23,22,01,09,31,03,,,,,,,2.49,1.61,1.89*03
$GPRMC,133834.000,A,5454.7210,N,00946.8273,E,0.02,26.19,300919,,,D*58
$GPVTG,26.19,T,,M,0.02,N,0.03,K,D*05
$GPGGA,133835.000,5454.7210,N,00946.8273,E,2,06,1.61,29.8,M,44.6,M,0000,0000*54
$GPGSA,A,3,23,22,01,09,31,03,,,,,,,2.49,1.61,1.90*0B
$GPRMC,133835.000,A,5454.7210,N,00946.8273,E,0.02,352.03,300919,,,D*62
$GPVTG,352.03,T,,M,0.02,N,0.04,K,D*39
$GPGGA,133836.000,5454.7210,N,00946.8273,E,2,06,1.61,29.8,M,44.6,M,0000,0000*57
$GPGSA,A,3,23,22,01,09,31,03,,,,,,,2.49,1.61,1.89*03
$GPGSV,4,1,15,23,69,184,38,03,66,094,36,22,43,101,40,06,41,302,18*73
$GPGSV,4,2,15,09,37,216,43,19,34,264,,17,29,245,20,31,24,045,18*7B
$GPGSV,4,3,15,36,24,154,34,01,21,152,37,25,07,005,,14,04,049,*77
$GPGSV,4,4,15,02,03,318,,12,03,326,,11,02,168,23*4D
$GPRMC,133836.000,A,5454.7210,N,00946.8273,E,0.02,73.50,300919,,,D*57
$GPVTG,73.50,T,,M,0.02,N,0.04,K,D*0F
$GPGGA,133837.000,5454.7210,N,00946.8273,E,2,06,1.61,29.8,M,44.6,M,0000,0000*56
$GPGSA,A,3,23,22,01,09,31,03,,,,,,,2.49,1.61,1.89*03
$GPRMC,133837.000,A,5454.7210,N,00946.8273,E,0.05,48.95,300919,,,D*50
$GPVTG,48.95,T,,M,0.05,N,0.09,K,D*04
$GPGGA,133838.000,5454.7210,N,00946.8273,E,2,06,1.61,29.8,M,44.6,M,0000,0000*59
$GPGSA,A,3,23,22,01,09,31,03,,,,,,,2.49,1.61,1.89*03
$GPRMC,133838.000,A,5454.7210,N,00946.8273,E,0.02,355.56,300919,,,D*68
$GPVTG,355.56,T,,M,0.02,N,0.03,K,D*39
$GPGGA,133839.000,5454.7210,N,00946.8273,E,2,06,1.61,29.8,M,44.6,M,0000,0000*58
$GPGSA,A,3,23,22,01,09,31,03,,,,,,,2.49,1.61,1.89*03
$GPRMC,133839.000,A,5454.7210,N,00946.8273,E,0.03,347.51,300919,,,D*6C
$GPVTG,347.51,T,,M,0.03,N,0.06,K,D*39
$GPGGA,133840.000,5454.7210,N,00946.8273,E,2,06,1.57,29.8,M,44.6,M,0000,0000*53
$GPGSA,A,3,23,22,01,09,31,03,,,,,,,1.80,1.57,0.88*00
$GPRMC,133840.000,A,5454.7210,N,00946.8273,E,0.02,168.44,300919,,,D*68
$GPVTG,168.44,T,,M,0.02,N,0.04,K,D*31
$GPGGA,133841.000,5454.7210,N,00946.8273,E,2,06,1.61,29.8,M,44.6,M,0000,0000*57
$GPGSA,A,3,23,22,01,09,31,03,,,,,,,2.49,1.61,1.89*03
$GPGSV,4,1,15,23,69,184,34,03,65,095,19,22,43,101,31,06,41,302,15*7B
$GPGSV,4,2,15,09,37,216,20,19,34,264,,17,29,245,14,31,24,045,17*76
$GPGSV,4,3,15,36,24,154,32,01,21,152,34,25,07,005,,14,04,049,*72
$GPGSV,4,4,15,02,03,318,,12,03,326,,11,02,168,20*4E
$GPRMC,133841.000,A,5454.7210,N,00946.8273,E,0.03,343.48,300919,,,D*6F
$GPVTG,343.48,T,,M,0.03,N,0.05,K,D*36
$GPGGA,133842.000,5454.7210,N,00946.8273,E,2,06,1.61,29.8,M,44.6,M,0000,0000*54
$GPGSA,A,3,23,22,01,09,31,03,,,,,,,2.49,1.61,1.89*03
$GPRMC,133842.000,A,5454.7210,N,00946.8273,E,0.02,85.11,300919,,,D*58
$GPVTG,85.11,T,,M,0.02,N,0.03,K,D*04
$GPGGA,133843.000,5454.7210,N,00946.8273,E,2,05,4.70,29.8,M,44.6,M,0000,0000*53
$GPGSA,A,3,23,22,01,09,03,,,,,,,,7.19,4.70,5.44*01
$GPRMC,133843.000,A,5454.7210,N,00946.8273,E,0.05,349.71,300919,,,D*6B
$GPVTG,349.71,T,,M,0.05,N,0.09,K,D*3C
$GPGGA,133844.000,5454.7210,N,00946.8273,E,2,05,4.70,29.8,M,44.6,M,0000,0000*54
$GPGSA,A,3,23,22,01,09,03,,,,,,,,7.19,4.70,5.45*00
$GPRMC,133844.000,A,5454.7210,N,00946.8273,E,0.03,318.49,300919,,,D*65
$GPVTG,318.49,T,,M,0.03,N,0.05,K,D*39
$GPGGA,133845.000,5454.7210,N,00946.8273,E,2,05,4.70,29.8,M,44.6,M,0000,0000*55
$GPGSA,A,3,23,22,01,09,03,,,,,,,,7.19,4.70,5.44*01
$GPRMC,133845.000,A,5454.7210,N,00946.8273,E,0.02,349.92,300919,,,D*67
$GPVTG,349.92,T,,M,0.02,N,0.03,K,D*3C
$GPGGA,133846.000,5454.7210,N,00946.8273,E,2,06,1.61,29.8,M,44.6,M,0000,0000*50
$GPGSA,A,3,23,22,01,09,31,03,,,,,,,2.48,1.61,1.89*02
$GPGSV,4,1,15,23,69,184,25,03,65,095,26,22,43,101,26,06,41,302,13*77
$GPGSV,4,2,15,09,37,216,31,19,34,264,,17,29,245,14,31,24,045,17*76
$GPGSV,4,3,15,36,24,154,32,01,21,152,29,25,07,005,,14,04,049,*7E
$GPGSV,4,4,15,02,03,318,,12,03,326,,11,02,168,22*4C
$GPRMC,133846.000,A,5454.7210,N,00946.8273,E,0.01,131.71,300919,,,D*67
$GPVTG,131.71,T,,M,0.01,N,0.02,K,D*3E
$GPGGA,133847.000,5454.7210,N,00946.8273,E,2,06,1.61,29.8,M,44.6,M,0000,0000*51
$GPGSA,A,3,23,22,01,09,31,03,,,,,,,2.48,1.61,1.89*02
$GPRMC,133847.000,A,5454.7210,N,00946.8273,E,0.00,225.03,300919,,,D*64
$GPVTG,225.03,T,,M,0.00,N,0.01,K,D*3F
$GPGGA,133848.000,5454.7210,N,00946.8273,E,2,06,1.61,29.8,M,44.6,M,0000,0000*5E
$GPGSA,A,3,23,22,01,09,31,03,,,,,,,2.48,1.61,1.89*02
$GPRMC,133848.000,A,5454.7210,N,00946.8273,E,0.00,124.63,300919,,,D*6F
$GPVTG,124.63,T,,M,0.00,N,0.01,K,D*3B
$GPGGA,133849.000,5454.7210,N,00946.8273,E,2,06,1.61,29.8,M,44.6,M,0000,0000*5F
$GPGSA,A,3,23,22,01,09,31,03,,,,,,,2.48,1.61,1.89*02
$GPRMC,133849.000,A,5454.7210,N,00946.8273,E,0.00,138.26,300919,,,D*62
$GPVTG,138.26,T,,M,0.00,N,0.01,K,D*37
$GPGGA,133850.000,5454.7210,N,00946.8273,E,2,06,1.61,29.8,M,44.6,M,0000,0000*57
$GPGSA,A,3,23,22,01,09,31,03,,,,,,,2.48,1.61,1.89*02
$GPRMC,133850.000,A,5454.7210,N,00946.8273,E,0.00,95.52,300919,,,D*5F
$GPVTG,95.52,T,,M,0.00,N,0.00,K,D*03
$GPGGA,133851.000,5454.7210,N,00946.8273,E,2,06,1.61,29.8,M,44.6,M,0000,0000*56
$GPGSA,A,3,23,22,01,09,31,03,,,,,,,2.48,1.61,1.89*02
$GPGSV,4,1,15,23,69,184,18,03,65,095,18,22,43,101,23,06,41,302,12*70
$GPGSV,4,2,15,09,37,216,19,19,34,264,,17,28,245,,31,24,045,12*7D
$GPGSV,4,3,15,36,24,154,23,01,21,152,18,25,07,005,,14,04,049,*7C
$GPGSV,4,4,15,02,03,318,,12,03,326,,11,02,168,13*4E
$GPRMC,133851.000,A,5454.7210,N,00946.8273,E,0.01,117.72,300919,,,D*66
$GPVTG,117.72,T,,M,0.01,N,0.01,K,D*3A
$GPGGA,133852.000,5454.7210,N,00946.8273,E,2,05,2.17,29.8,M,44.6,M,0000,0000*54
$GPGSA,A,3,23,22,01,09,03,,,,,,,,2.39,2.17,0.98*05
$GPRMC,133852.000,A,5454.7210,N,00946.8273,E,0.00,116.73,300919,,,D*64
$GPVTG,116.73,T,,M,0.00,N,0.01,K,D*3B
$GPGGA,133853.000,5454.7210,N,00946.8273,E,2,05,2.17,29.8,M,44.6,M,0000,0000*55
$GPGSA,A,3,23,22,01,09,03,,,,,,,,2.39,2.17,0.98*05
$GPRMC,133853.000,A,5454.7210,N,00946.8273,E,0.01,127.17,300919,,,D*64
$GPVTG,127.17,T,,M,0.01,N,0.02,K,D*39
$GPGGA,133854.000,5454.7210,N,00946.8273,E,2,05,4.71,29.8,M,44.6,M,0000,0000*54
$GPGSA,A,3,23,22,01,09,03,,,,,,,,7.21,4.71,5.45*0A
$GPRMC,133854.000,A,5454.7210,N,00946.8273,E,0.02,44.22,300919,,,D*52
$GPVTG,44.22,T,,M,0.02,N,0.04,K,D*0E
$GPGGA,133855.000,5454.7210,N,00946.8273,E,2,05,4.72,29.8,M,44.6,M,0000,0000*56
$GPGSA,A,3,23,22,01,09,03,,,,,,,,7.21,4.72,5.46*0A
$GPRMC,133855.000,A,5454.7210,N,00946.8273,E,0.03,54.06,300919,,,D*55
$GPVTG,54.06,T,,M,0.03,N,0.05,K,D*09
$GPGGA,133856.000,5454.7211,N,00946.8273,E,2,05,4.72,29.8,M,44.6,M,0000,0000*54
$GPGSA,A,3,23,22,01,09,03,,,,,,,,7.22,4.72,5.46*09
$GPGSV,4,1,15,23,69,184,21,03,65,095,20,22,43,101,30,06,41,302,12*73
$GPGSV,4,2,15,09,37,216,30,19,34,263,,17,28,245,,31,24,045,*72
$GPGSV,4,3,15,36,24,154,30,01,21,152,28,25,07,005,,14,04,049,*7D
$GPGSV,4,4,15,02,03,318,,12,03,326,,11,02,168,17*4A
$GPRMC,133856.000,A,5454.7211,N,00946.8273,E,0.06,21.08,300919,,,D*5E
$GPVTG,21.08,T,,M,0.06,N,0.11,K,D*05
$GPGGA,133857.000,5454.7211,N,00946.8273,E,2,05,4.72,29.8,M,44.6,M,0000,0000*55
$GPGSA,A,3,23,22,01,09,03,,,,,,,,7.21,4.72,5.46*0A
$GPRMC,133857.000,A,5454.7211,N,00946.8273,E,0.01,28.17,300919,,,D*5F
$GPVTG,28.17,T,,M,0.01,N,0.03,K,D*06
$GPGGA,133858.000,5454.7211,N,00946.8273,E,2,05,4.72,29.8,M,44.6,M,0000,0000*5A
$GPGSA,A,3,23,22,01,09,03,,,,,,,,7.22,4.72,5.46*09
$GPRMC,133858.000,A,5454.7211,N,00946.8273,E,0.01,29.59,300919,,,D*5B
$GPVTG,29.59,T,,M,0.01,N,0.02,K,D*0C
$GPGGA,133859.000,5454.7211,N,00946.8273,E,2,05,4.72,29.8,M,44.6,M,0000,0000*5B
$GPGSA,A,3,23,22,01,09,03,,,,,,,,7.22,4.72,5.46*09
$GPRMC,133859.000,A,5454.7211,N,00946.8273,E,0.02,51.26,300919,,,D*5E
$GPVTG,51.26,T,,M,0.02,N,0.05,K,D*0F
$GPGGA,133900.000,5454.7211,N,00946.8273,E,2,05,4.73,29.8,M,44.6,M,0000,0000*57
$GPGSA,A,3,23,22,01,09,03,,,,,,,,7.22,4.73,5.46*08
$GPRMC,133900.000,A,5454.7211,N,00946.8273,E,0.01,289.21,300919,,,D*60
$GPVTG,289.21,T,,M,0.01,N,0.02,K,D*3B
$GPGGA,133901.000,5454.7211,N,00946.8273,E,2,05,4.73,29.8,M,44.6,M,0000,0000*56
$GPGSA,A,3,23,22,01,09,03,,,,,,,,7.23,4.73,5.47*08
$GPGSV,4,1,15,23,70,183,16,03,65,095,26,22,43,101,28,06,41,302,*74
$GPGSV,4,2,15,09,37,216,33,19,34,263,,17,28,245,,31,24,045,*71
$GPGSV,4,3,15,36,24,154,29,01,21,152,31,25,07,005,,14,04,049,*7D
$GPGSV,4,4,15,02,03,318,,12,03,326,,11,02,168,17*4A
$GPRMC,133901.000,A,5454.7211,N,00946.8273,E,0.00,264.61,300919,,,D*67
$GPVTG,264.61,T,,M,0.00,N,0.00,K,D*3F
$GPGGA,133902.000,5454.7211,N,00946.8273,E,2,05,4.73,29.8,M,44.6,M,0000,0000*55
$GPGSA,A,3,23,22,01,09,03,,,,,,,,7.22,4.73,5.47*09
$GPRMC,133902.000,A,5454.7211,N,00946.8273,E,0.03,142.41,300919,,,D*62
$GPVTG,142.41,T,,M,0.03,N,0.05,K,D*3C
$GPGGA,133903.000,5454.7211,N,00946.8273,E,2,05,4.73,29.8,M,44.6,M,0000,0000*54
$GPGSA,A,3,23,22,01,09,03,,,,,,,,7.22,4.73,5.46*08
$GPRMC,133903.000,A,5454.7211,N,00946.8273,E,0.03,153.32,300919,,,D*67
$GPVTG,153.32,T,,M,0.03,N,0.05,K,D*38
$GPGGA,133904.000,5454.7210,N,00946.8273,E,2,05,4.73,29.8,M,44.6,M,0000,0000*52
$GPGSA,A,3,23,22,01,09,03,,,,,,,,7.23,4.73,5.47*08
$GPRMC,133904.000,A,5454.7210,N,00946.8273,E,0.04,114.48,300919,,,D*68
$GPVTG,114.48,T,,M,0.04,N,0.07,K,D*33
$GPGGA,133905.000,5454.7210,N,00946.8273,E,2,06,1.61,29.8,M,44.6,M,0000,0000*56
$GPGSA,A,3,23,22,01,09,31,03,,,,,,,2.48,1.61,1.89*02
$GPRMC,133905.000,A,5454.7210,N,00946.8273,E,0.02,131.44,300919,,,D*64
$GPVTG,131.44,T,,M,0.02,N,0.05,K,D*3C
$GPGGA,133906.000,5454.7211,N,00946.8273,E,2,06,1.61,29.8,M,44.6,M,0000,0000*54
$GPGSA,A,3,23,22,01,09,31,03,,,,,,,2.48,1.61,1.89*02
$GPGSV,4,1,15,23,70,183,27,03,65,095,23,22,43,101,31,06,41,302,*7B
$GPGSV,4,2,15,09,37,216,31,19,34,263,,17,28,245,,36,24,154,30*76
$GPGSV,4,3,15,31,23,045,13,01,21,152,30,25,07,005,,14,04,049,*74
$GPGSV,4,4,15,02,03,318,,12,03,326,,11,02,168,17*4A
$GPRMC,133906.000,A,5454.7211,N,00946.8273,E,0.02,5.97,300919,,,D*6E
$GPVTG,5.97,T,,M,0.02,N,0.03,K,D*32
$GPGGA,133907.000,5454.7211,N,00946.8273,E,2,06,1.61,29.8,M,44.6,M,0000,0000*55
$GPGSA,A,3,23,22,01,09,31,03,,,,,,,2.48,1.61,1.89*02
$GPRMC,133907.000,A,5454.7211,N,00946.8273,E,0.02,353.52,300919,,,D*66
$GPVTG,353.52,T,,M,0.02,N,0.04,K,D*3C
$GPGGA,133908.000,5454.7211,N,00946.8273,E,2,06,1.61,29.8,M,44.6,M,0000,0000*5A
$GPGSA,A,3,23,22,01,09,31,03,,,,,,,2.48,1.61,1.89*02
$GPRMC,133908.000,A,5454.7211,N,00946.8273,E,0.01,23.82,300919,,,D*53
$GPVTG,23.82,T,,M,0.01,N,0.01,K,D*03
$GPGGA,133909.000,5454.7211,N,00946.8273,E,2,06,1.61,29.8,M,44.6,M,0000,0000*5B
$GPGSA,A,3,23,22,01,09,31,03,,,,,,,2.48,1.61,1.89*02
$GPRMC,133909.000,A,5454.7211,N,00946.8273,E,0.00,12.89,300919,,,D*5A
$GPVTG,12.89,T,,M,0.00,N,0.00,K,D*0A
$GPGGA,133910.000,5454.7211,N,00946.8273,E,2,06,1.56,29.8,M,44.6,M,0000,0000*57
$GPGSA,A,3,23,22,01,09,31,03,,,,,,,1.80,1.56,0.88*01
$GPRMC,133910.000,A,5454.7211,N,00946.8273,E,0.00,328.22,300919,,,D*69
$GPVTG,328.22,T,,M,0.00,N,0.01,K,D*30
$GPGGA,133911.000,5454.7211,N,00946.8273,E,2,06,1.57,29.8,M,44.6,M,0000,0000*57
$GPGSA,A,3,23,22,01,09,31,03,,,,,,,1.80,1.57,0.88*00
$GPGSV,4,1,15,23,70,183,23,03,65,095,18,22,43,101,16,06,41,302,*72
$GPGSV,4,2,15,09,37,216,15,19,34,263,,17,28,245,,36,24,154,27*76
$GPGSV,4,3,15,31,23,045,14,01,20,152,19,25,07,005,,14,04,049,*79
$GPGSV,4,4,15,02,04,318,,12,03,326,,11,02,168,15*4F
$GPRMC,133911.000,A,5454.7211,N,00946.8273,E,0.00,311.20,300919,,,D*60
$GPVTG,311.20,T,,M,0.00,N,0.00,K,D*39
$GPGGA,133912.000,5454.7211,N,00946.8273,E,2,06,1.56,29.8,M,44.6,M,0000,0000*55
$GPGSA,A,3,23,22,01,09,31,03,,,,,,,1.80,1.56,0.88*01
$GPRMC,133912.000,A,5454.7211,N,00946.8273,E,0.00,0.00,300919,,,D*62
$GPVTG,0.00,T,,M,0.00,N,0.00,K,D*38
$GPGGA,133913.000,5454.7211,N,00946.8273,E,2,06,1.56,29.8,M,44.6,M,0000,0000*54
$GPGSA,A,3,23,22,01,09,31,03,,,,,,,1.80,1.56,0.88*01
$GPRMC,133913.000,A,5454.7211,N,00946.8273,E,0.03,333.82,300919,,,D*69
$GPVTG,333.82,T,,M,0.03,N,0.05,K,D*37
$GPGGA,133914.000,5454.7211,N,00946.8273,E,2,06,1.56,29.8,M,44.6,M,0000,0000*53
$GPGSA,A,3,23,22,01,09,31,03,,,,,,,1.80,1.56,0.88*01
$GPRMC,133914.000,A,5454.7211,N,00946.8273,E,0.00,336.59,300919,,,D*6E
$GPVTG,336.59,T,,M,0.00,N,0.01,K,D*33
$GPGGA,133915.000,5454.7211,N,00946.8273,E,2,06,1.56,29.8,M,44.6,M,0000,0000*52
$GPGSA,A,3,23,22,01,09,31,03,,,,,,,1.80,1.56,0.88*01
$GPRMC,133915.000,A,5454.7211,N,00946.8273,E,0.00,174.36,300919,,,D*62
$GPVTG,174.36,T,,M,0.00,N,0.00,K,D*3F
$GPGGA,133916.000,5454.7211,N,00946.8273,E,2,06,1.56,29.8,M,44.6,M,0000,0000*51
$GPGSA,A,3,23,22,01,09,31,03,,,,,,,1.80,1.56,0.88*01
$GPGSV,4,1,15,23,70,183,23,03,65,095,19,22,43,101,13,06,41,302,*76
$GPGSV,4,2,15,09,37,216,17,19,34,263,,17,28,245,,36,24,154,28*7B
$GPGSV,4,3,15,31,23,045,12,01,20,152,25,25,07,005,,14,04,049,*70
$GPGSV,4,4,15,02,04,318,,12,03,326,,11,02,168,13*49
$GPRMC,133916.000,A,5454.7211,N,00946.8273,E,0.00,353.80,300919,,,D*6B
$GPVTG,353.80,T,,M,0.00,N,0.01,K,D*34
$GPGGA,133917.000,5454.7211,N,00946.8273,E,2,06,1.56,29.8,M,44.6,M,0000,0000*50
$GPGSA,A,3,23,22,01,09,31,03,,,,,,,1.80,1.56,0.88*01
$GPRMC,133917.000,A,5454.7211,N,00946.8273,E,0.00,0.00,300919,,,D*67
$GPVTG,0.00,T,,M,0.00,N,0.00,K,D*38
$GPGGA,133918.000,5454.7211,N,00946.8273,E,2,06,1.56,29.8,M,44.6,M,0000,0000*5F
$GPGSA,A,3,23,22,01,09,31,03,,,,,,,1.80,1.56,0.88*01
$GPRMC,133918.000,A,5454.7211,N,00946.8273,E,0.00,156.69,300919,,,D*65
$GPVTG,156.69,T,,M,0.00,N,0.01,K,D*34
$GPGGA,133919.000,5454.7211,N,00946.8273,E,2,06,1.56,29.8,M,44.6,M,0000,0000*5E
$GPGSA,A,3,23,22,01,09,31,03,,,,,,,1.80,1.56,0.88*01
$GPRMC,133919.000,A,5454.7211,N,00946.8273,E,0.00,321.47,300919,,,D*6A
$GPVTG,321.47,T,,M,0.00,N,0.00,K,D*3B
$GPGGA,133920.000,5454.7211,N,00946.8273,E,2,06,1.56,29.8,M,44.6,M,0000,0000*54
$GPGSA,A,3,23,22,01,09,31,03,,,,,,,1.80,1.56,0.88*01
$GPRMC,133920.000,A,5454.7211,N,00946.8273,E,0.00,292.13,300919,,,D*68
$GPVTG,292.13,T,,M,0.00,N,0.01,K,D*32
$GPGGA,133921.000,5454.7211,N,00946.8273,E,2,06,1.56,29.8,M,44.6,M,0000,0000*55
$GPGSA,A,3,23,22,01,09,31,03,,,,,,,1.80,1.56,0.88*01
$GPGSV,4,1,15,23,70,183,13,03,65,095,15,22,43,101,15,06,41,302,*7F
$GPGSV,4,2,15,09,37,216,14,19,34,263,,17,28,245,,36,24,154,25*75
$GPGSV,4,3,15,31,23,045,12,01,20,152,16,25,07,005,,14,04,049,*70
$GPGSV,4,4,15,02,04,318,,12,03,326,,11,02,168,12*48
$GPRMC,133921.000,A,5454.7211,N,00946.8273,E,0.00,0.00,300919,,,D*62
$GPVTG,0.00,T,,M,0.00,N,0.00,K,D*38
$GPGGA,133922.000,5454.7211,N,00946.8273,E,2,06,1.56,29.8,M,44.6,M,0000,0000*56
$GPGSA,A,3,23,22,01,09,31,03,,,,,,,1.80,1.56,0.88*01
$GPRMC,133922.000,A,5454.7211,N,00946.8273,E,0.00,0.00,300919,,,D*61
$GPVTG,0.00,T,,M,0.00,N,0.00,K,D*38
$GPGGA,133923.000,5454.7211,N,00946.8273,E,2,05,2.17,29.8,M,44.6,M,0000,0000*52
$GPGSA,A,3,23,22,01,09,03,,,,,,,,2.39,2.17,0.98*05
$GPRMC,133923.000,A,5454.7211,N,00946.8273,E,0.00,0.00,300919,,,D*60
$GPVTG,0.00,T,,M,0.00,N,0.00,K,D*38
$GPGGA,133924.000,5454.7211,N,00946.8273,E,2,05,2.17,29.8,M,44.6,M,0000,0000*55
$GPGSA,A,3,23,22,01,09,03,,,,,,,,2.39,2.17,0.98*05
$GPRMC,133924.000,A,5454.7211,N,00946.8273,E,0.00,309.09,300919,,,D*64
$GPVTG,309.09,T,,M,0.00,N,0.00,K,D*3B
$GPGGA,133925.000,5454.7211,N,00946.8273,E,2,05,2.17,29.8,M,44.6,M,0000,0000*54
$GPGSA,A,3,23,22,01,09,03,,,,,,,,2.38,2.17,0.98*04
$GPRMC,133925.000,A,5454.7211,N,00946.8273,E,0.00,307.28,300919,,,D*68
$GPVTG,307.28,T,,M,0.00,N,0.00,K,D*36
$GPGGA,133926.000,5454.7211,N,00946.8273,E,2,05,2.17,29.8,M,44.6,M,0000,0000*57
$GPGSA,A,3,23,22,01,09,03,,,,,,,,2.39,2.17,0.98*05
$GPGSV,4,1,15,23,70,183,14,03,65,095,14,22,43,101,16,06,41,302,*7A
$GPGSV,4,2,15,09,37,216,17,19,34,263,,17,28,245,,36,24,154,*71
$GPGSV,4,3,15,31,23,045,,01,20,152,24,25,07,005,,14,04,049,*72
$GPGSV,4,4,15,02,04,318,,12,03,326,,11,02,168,*4B
$GPRMC,133926.000,A,5454.7211,N,00946.8273,E,0.01,298.00,300919,,,D*67
$GPVTG,298.00,T,,M,0.01,N,0.02,K,D*38
$GPGGA,133927.000,5454.7211,N,00946.8273,E,2,05,2.17,29.8,M,44.6,M,0000,0000*56
$GPGSA,A,3,23,22,01,09,03,,,,,,,,2.38,2.17,0.98*04
$GPRMC,133927.000,A,5454.7211,N,00946.8273,E,0.01,292.11,300919,,,D*6C
$GPVTG,292.11,T,,M,0.01,N,0.02,K,D*32
$GPGGA,133928.000,5454.7211,N,00946.8273,E,2,05,2.17,29.8,M,44.6,M,0000,0000*59
$GPGSA,A,3,23,22,01,09,03,,,,,,,,2.39,2.17,0.98*05
$GPRMC,133928.000,A,5454.7211,N,00946.8273,E,0.04,345.17,300919,,,D*6B
$GPVTG,345.17,T,,M,0.04,N,0.07,K,D*3F
$GPGGA,133929.000,5454.7211,N,00946.8273,E,2,05,2.17,29.8,M,44.6,M,0000,0000*58
$GPGSA,A,3,23,22,01,09,03,,,,,,,,2.39,2.17,0.98*05
$GPRMC,133929.000,A,5454.7211,N,00946.8273,E,0.12,36.69,300919,,,D*53
$GPVTG,36.69,T,,M,0.12,N,0.22,K,D*01
$GPGGA,133930.000,5454.7212,N,00946.8273,E,2,05,2.17,29.8,M,44.6,M,0000,0000*53
$GPGSA,A,3,23,22,01,09,03,,,,,,,,2.39,2.17,0.98*05
$GPRMC,133930.000,A,5454.7212,N,00946.8273,E,0.18,351.00,300919,,,D*6F
$GPVTG,351.00,T,,M,0.18,N,0.33,K,D*36
$GPGGA,133931.000,5454.7212,N,00946.8273,E,2,05,2.17,29.8,M,44.6,M,0000,0000*52
$GPGSA,A,3,23,22,01,09,03,,,,,,,,2.39,2.17,0.98*05
$GPGSV,4,1,15,23,70,183,41,03,65,095,41,22,43,102,38,06,41,302,*75
$GPGSV,4,2,15,09,37,216,44,19,34,263,,17,28,245,,36,24,154,*77
$GPGSV,4,3,15,31,23,045,,01,20,152,41,25,07,005,,14,04,049,*71
$GPGSV,4,4,15,02,04,318,,12,03,326,,11,02,168,*4B
$GPRMC,133931.000,A,5454.7212,N,00946.8273,E,0.19,1.91,300919,,,D*61
$GPVTG,1.91,T,,M,0.19,N,0.35,K,D*3F
$GPGGA,133932.000,5454.7213,N,00946.8273,E,2,05,2.17,29.8,M,44.6,M,0000,0000*50
$GPGSA,A,3,23,22,01,09,03,,,,,,,,2.39,2.17,0.98*05
$GPRMC,133932.000,A,5454.7213,N,00946.8273,E,0.25,359.49,300919,,,D*67
$GPVTG,359.49,T,,M,0.25,N,0.46,K,D*3F
$GPGGA,133933.000,5454.7213,N,00946.8273,E,2,05,2.17,29.8,M,44.6,M,0000,0000*51
$GPGSA,A,3,23,22,01,09,03,,,,,,,,2.39,2.17,0.98*05
$GPRMC,133933.000,A,5454.7213,N,00946.8273,E,0.30,11.05,300919,,,D*55
$GPVTG,11.05,T,,M,0.30,N,0.56,K,D*0D
$GPGGA,133934.000,5454.7214,N,00946.8274,E,2,05,2.17,29.8,M,44.6,M,0000,0000*56
$GPGSA,A,3,23,22,01,09,03,,,,,,,,2.38,2.17,0.98*04
$GPRMC,133934.000,A,5454.7214,N,00946.8274,E,0.25,45.98,300919,,,D*53
$GPVTG,45.98,T,,M,0.25,N,0.46,K,D*0D
$GPGGA,133935.000,5454.7215,N,00946.8275,E,2,05,2.17,29.7,M,44.6,M,0000,0000*58
$GPGSA,A,3,23,22,01,09,03,,,,,,,,2.39,2.17,0.98*05
$GPRMC,133935.000,A,5454.7215,N,00946.8275,E,0.30,48.91,300919,,,D*52
$GPVTG,48.91,T,,M,0.30,N,0.56,K,D*0C
$GPGGA,133936.000,5454.7215,N,00946.8276,E,2,05,2.17,29.7,M,44.6,M,0000,0000*58
$GPGSA,A,3,23,22,01,09,03,,,,,,,,2.39,2.17,0.98*05
$GPGSV,4,1,15,23,70,183,44,03,65,095,45,22,43,102,42,06,41,302,*79
$GPGSV,4,2,15,09,37,216,46,19,34,263,20,17,28,245,,31,23,045,*76
$GPGSV,4,3,15,01,20,152,40,25,07,004,,14,04,049,,02,04,318,*7F
$GPGSV,4,4,15,12,03,326,,11,02,168,21,38,,,*7F
$GPRMC,133936.000,A,5454.7215,N,00946.8276,E,0.29,50.36,300919,,,D*5E
$GPVTG,50.36,T,,M,0.29,N,0.54,K,D*02
$GPGGA,133937.000,5454.7216,N,00946.8277,E,2,05,2.17,29.7,M,44.6,M,0000,0000*5B
$GPGSA,A,3,23,22,01,09,03,,,,,,,,2.39,2.17,0.98*05
$GPRMC,133937.000,A,5454.7216,N,00946.8277,E,0.15,60.40,300919,,,D*50
$GPVTG,60.40,T,,M,0.15,N,0.27,K,D*0B
$GPGGA,133938.000,5454.7216,N,00946.8277,E,2,05,2.17,29.7,M,44.6,M,0000,0000*54
$GPGSA,A,3,23,22,01,09,03,,,,,,,,2.38,2.17,0.98*04
$GPRMC,133938.000,A,5454.7216,N,00946.8277,E,0.14,57.97,300919,,,D*50
$GPVTG,57.97,T,,M,0.14,N,0.26,K,D*05
$GPGGA,133939.000,5454.7216,N,00946.8278,E,2,05,2.17,29.7,M,44.6,M,0000,0000*5A
$GPGSA,A,3,23,22,01,09,03,,,,,,,,2.38,2.17,0.98*04
$GPRMC,133939.000,A,5454.7216,N,00946.8278,E,0.12,53.27,300919,,,D*57
$GPVTG,53.27,T,,M,0.12,N,0.22,K,D*08
$GPGGA,133940.000,5454.7216,N,00946.8278,E,2,06,1.56,29.7,M,44.6,M,0000,0000*51
$GPGSA,A,3,23,22,01,09,31,03,,,,,,,1.79,1.56,0.88*07
$GPRMC,133940.000,A,5454.7216,N,00946.8278,E,0.11,47.30,300919,,,D*59
$GPVTG,47.30,T,,M,0.11,N,0.21,K,D*0B
$GPGGA,133941.000,5454.7216,N,00946.8279,E,2,05,2.17,29.7,M,44.6,M,0000,0000*54
$GPGSA,A,3,23,22,01,09,03,,,,,,,,2.39,2.17,0.98*05
$GPGSV,4,1,15,23,70,183,45,03,65,095,45,22,43,102,42,06,41,302,*78
$GPGSV,4,2,15,09,37,216,46,19,34,263,17,17,28,245,13,31,23,044,16*76
$GPGSV,4,3,15,01,20,152,39,25,07,004,,14,04,049,,02,04,318,*71
$GPGSV,4,4,15,12,03,326,,11,02,168,22,41,,,*72
$GPRMC,133941.000,A,5454.7216,N,00946.8279,E,0.08,38.98,300919,,,D*5B
$GPVTG,38.98,T,,M,0.08,N,0
